{
    "stations": [
        {
            "stops": [{
                "transport_type": {
                    "type": "FGC"
                },
                "lines": [],
                "station": 1
            }],
            "name": "BONANOVA",
            "latitude": 41.397791,
            "longitude": 2.135427,
            "rating": 0.0
        }, {
            "stops": [{
                "transport_type": {
                    "type": "FGC"
                },
                "lines": [],
                "station": 2
            }],
            "name": "EL PUTXET",
            "latitude": 41.405731,
            "longitude": 2.139248,
            "rating": 0.0
        }, {
            "stops": [{
                "transport_type": {
                    "type": "FGC"
                },
                "lines": [],
                "station": 3
            }],
            "name": "SARRI\u00c0",
            "latitude": 41.39896,
            "longitude": 2.125112,
            "rating": 0.0
        }, {
            "stops": [{
                "transport_type": {
                    "type": "FGC"
                },
                "lines": [],
                "station": 4
            }],
            "name": "LA FLORESTA",
            "latitude": 41.444795,
            "longitude": 2.073187,
            "rating": 0.0
        }, {
            "stops": [{
                "transport_type": {
                    "type": "FGC"
                },
                "lines": [],
                "station": 5
            }, {
                "transport_type": {
                    "type": "RENFE"
                },
                "lines": [],
                "station": 5
            }, {
                "transport_type": {
                    "type": "METRO"
                },
                "lines": ["L1", "L3"],
                "station": 5
            }],
            "name": "CATALUNYA",
            "latitude": 41.385919,
            "longitude": 2.167015,
            "rating": 0.0
        }, {
            "stops": [{
                "transport_type": {
                    "type": "RENFE"
                },
                "lines": [],
                "station": 6
            }],
            "name": "EL PRAT DE LLOBREGAT",
            "latitude": 41.331201,
            "longitude": 2.09108,
            "rating": 0.0
        }, {
            "stops": [{
                "transport_type": {
                    "type": "TRAM"
                },
                "lines": ["T4"],
                "station": 7
            }],
            "name": "F\u00d2RUM",
            "latitude": 41.411777,
            "longitude": 2.219829,
            "rating": 0.0
        }, {
            "stops": [{
                "transport_type": {
                    "type": "TRAM"
                },
                "lines": ["T4", "T6"],
                "station": 8
            }],
            "name": "ESTACI\u00d3 DE SANT ADRI\u00c0",
            "latitude": 41.423854,
            "longitude": 2.230412,
            "rating": 0.0
        }, {
            "stops": [{
                "transport_type": {
                    "type": "TRAM"
                },
                "lines": ["T1", "T2"],
                "station": 9
            }],
            "name": "FONTSANTAFATJ\u00d3",
            "latitude": 41.360383,
            "longitude": 2.062227,
            "rating": 0.0
        }, {
            "stops": [{
                "transport_type": {
                    "type": "RENFE"
                },
                "lines": [],
                "station": 10
            }],
            "name": "MONTCADARIPOLLET",
            "latitude": 41.496321,
            "longitude": 2.181768,
            "rating": 0.0
        }, {
            "stops": [{
                "transport_type": {
                    "type": "TRAM"
                },
                "lines": ["T1", "T2"],
                "station": 11
            }],
            "name": "EL PEDR\u00d2",
            "latitude": 41.365513,
            "longitude": 2.076889,
            "rating": 0.0
        }, {
            "stops": [{
                "transport_type": {
                    "type": "TRAM"
                },
                "lines": ["T5", "T6"],
                "station": 12
            }],
            "name": "ESPRONCEDA",
            "latitude": 41.411242,
            "longitude": 2.197653,
            "rating": 0.0
        }, {
            "stops": [{
                "transport_type": {
                    "type": "TRAM"
                },
                "lines": ["T1", "T2", "T3"],
                "station": 13
            }],
            "name": "AVINGUDA DE XILE",
            "latitude": 41.38048,
            "longitude": 2.115012,
            "rating": 0.0
        }, {
            "stops": [{
                "transport_type": {
                    "type": "TRAM"
                },
                "lines": ["T1", "T2", "T3"],
                "station": 14
            }],
            "name": "CAN RIGAL",
            "latitude": 41.376071,
            "longitude": 2.106023,
            "rating": 0.0
        }, {
            "stops": [{
                "transport_type": {
                    "type": "TRAM"
                },
                "lines": ["T5"],
                "station": 15
            }],
            "name": "ENCANTS DE SANT ADRI\u00c0",
            "latitude": 41.430456,
            "longitude": 2.222916,
            "rating": 0.0
        }, {
            "stops": [{
                "transport_type": {
                    "type": "TRAM"
                },
                "lines": ["T1", "T2", "T3"],
                "station": 16
            }],
            "name": "CA N'OLIVERES",
            "latitude": 41.376486,
            "longitude": 2.098896,
            "rating": 0.0
        }, {
            "stops": [{
                "transport_type": {
                    "type": "METRO"
                },
                "lines": ["L1"],
                "station": 17
            }],
            "name": "Urgell",
            "latitude": 41.382515,
            "longitude": 2.158917,
            "rating": 0.0
        }, {
            "stops": [{
                "transport_type": {
                    "type": "METRO"
                },
                "lines": ["L1"],
                "station": 18
            }, {
                "transport_type": {
                    "type": "TRAM"
                },
                "lines": ["T4", "T5", "T6"],
                "station": 18
            }],
            "name": "Gl\u00f2ries",
            "latitude": 41.402305,
            "longitude": 2.187563,
            "rating": 0.0
        }, {
            "stops": [{
                "transport_type": {
                    "type": "METRO"
                },
                "lines": ["L4"],
                "station": 19
            }],
            "name": "Barceloneta",
            "latitude": 41.381839,
            "longitude": 2.184813,
            "rating": 0.0
        }, {
            "stops": [{
                "transport_type": {
                    "type": "METRO"
                },
                "lines": ["L2"],
                "station": 20
            }],
            "name": "Monumental",
            "latitude": 41.400552,
            "longitude": 2.179488,
            "rating": 0.0
        }, {
            "stops": [{
                "transport_type": {
                    "type": "METRO"
                },
                "lines": ["L2"],
                "station": 21
            }],
            "name": "Sant Mart\u00ed",
            "latitude": 41.419092,
            "longitude": 2.20075,
            "rating": 0.0
        }, {
            "stops": [{
                "transport_type": {
                    "type": "METRO"
                },
                "lines": ["L1"],
                "station": 22
            }],
            "name": "Llefi\u00e0",
            "latitude": 41.441388,
            "longitude": 2.216931,
            "rating": 0.0
        }, {
            "stops": [{
                "transport_type": {
                    "type": "METRO"
                },
                "lines": ["L1"],
                "station": 23
            }],
            "name": "Foneria",
            "latitude": 41.361128,
            "longitude": 2.138256,
            "rating": 0.0
        }, {
            "stops": [{
                "transport_type": {
                    "type": "METRO"
                },
                "lines": ["FM", "L3", "L2"],
                "station": 24
            }],
            "name": "Paral\u00b7lel",
            "latitude": 41.373877,
            "longitude": 2.168879,
            "rating": 0.0
        }, {
            "stops": [{
                "transport_type": {
                    "type": "METRO"
                },
                "lines": ["L3"],
                "station": 25
            }],
            "name": "Mundet",
            "latitude": 41.435673,
            "longitude": 2.148498,
            "rating": 0.0
        }, {
            "stops": [{
                "transport_type": {
                    "type": "METRO"
                },
                "lines": ["L3"],
                "station": 26
            }],
            "name": "Liceu",
            "latitude": 41.381473,
            "longitude": 2.173056,
            "rating": 0.0
        }, {
            "stops": [{
                "transport_type": {
                    "type": "TRAM"
                },
                "lines": ["T3"],
                "station": 27
            }],
            "name": "SANT MART\u00cd DE L'ERM",
            "latitude": 41.372339,
            "longitude": 2.075814,
            "rating": 0.0
        }, {
            "stops": [{
                "transport_type": {
                    "type": "TRAM"
                },
                "lines": ["T1", "T2", "T3"],
                "station": 28
            }],
            "name": "LA SARDANA",
            "latitude": 41.373477,
            "longitude": 2.084309,
            "rating": 0.0
        }, {
            "stops": [{
                "transport_type": {
                    "type": "TRAM"
                },
                "lines": ["T3"],
                "station": 29
            }],
            "name": "RAMBLA DE SANT JUST",
            "latitude": 41.378842,
            "longitude": 2.075217,
            "rating": 0.0
        }, {
            "stops": [{
                "transport_type": {
                    "type": "TRAM"
                },
                "lines": ["T4", "T6"],
                "station": 30
            }],
            "name": "PORT F\u00d2RUM",
            "latitude": 41.418903,
            "longitude": 2.22618,
            "rating": 0.0
        }, {
            "stops": [{
                "transport_type": {
                    "type": "METRO"
                },
                "lines": ["L1", "L9"],
                "station": 31
            }],
            "name": "Fondo",
            "latitude": 41.451611,
            "longitude": 2.21846,
            "rating": 0.0
        }, {
            "stops": [{
                "transport_type": {
                    "type": "RENFE"
                },
                "lines": [],
                "station": 32
            }, {
                "transport_type": {
                    "type": "METRO"
                },
                "lines": ["L3", "L4", "L2"],
                "station": 32
            }],
            "name": "Passeig de Gr\u00e0cia",
            "latitude": 41.391631,
            "longitude": 2.165373,
            "rating": 0.0
        }, {
            "stops": [{
                "transport_type": {
                    "type": "METRO"
                },
                "lines": ["L2"],
                "station": 33
            }],
            "name": "Bac de Roda",
            "latitude": 41.41519,
            "longitude": 2.195529,
            "rating": 0.0
        }, {
            "stops": [{
                "transport_type": {
                    "type": "METRO"
                },
                "lines": ["L1"],
                "station": 34
            }],
            "name": "Bar\u00f3 de Viver",
            "latitude": 41.449964,
            "longitude": 2.199588,
            "rating": 0.0
        }, {
            "stops": [{
                "transport_type": {
                    "type": "METRO"
                },
                "lines": ["L4"],
                "station": 35
            }],
            "name": "Bogatell",
            "latitude": 41.395136,
            "longitude": 2.192038,
            "rating": 0.0
        }, {
            "stops": [{
                "transport_type": {
                    "type": "METRO"
                },
                "lines": ["L4"],
                "station": 36
            }],
            "name": "Jaume I",
            "latitude": 41.384154,
            "longitude": 2.178557,
            "rating": 0.0
        }, {
            "stops": [{
                "transport_type": {
                    "type": "METRO"
                },
                "lines": ["L1", "L5"],
                "station": 37
            }],
            "name": "Pla\u00e7a de Sants",
            "latitude": 41.375381,
            "longitude": 2.138181,
            "rating": 0.0
        }, {
            "stops": [{
                "transport_type": {
                    "type": "METRO"
                },
                "lines": ["L3"],
                "station": 38
            }],
            "name": "Montbau",
            "latitude": 41.430648,
            "longitude": 2.145065,
            "rating": 0.0
        }, {
            "stops": [{
                "transport_type": {
                    "type": "METRO"
                },
                "lines": ["L2"],
                "station": 39
            }],
            "name": "Sant Antoni",
            "latitude": 41.379861,
            "longitude": 2.163267,
            "rating": 0.0
        }, {
            "stops": [{
                "transport_type": {
                    "type": "METRO"
                },
                "lines": ["L4"],
                "station": 40
            }],
            "name": "Via J\u00falia",
            "latitude": 41.443758,
            "longitude": 2.178576,
            "rating": 0.0
        }, {
            "stops": [{
                "transport_type": {
                    "type": "FGC"
                },
                "lines": [],
                "station": 41
            }],
            "name": "PROVEN\u00c7A",
            "latitude": 41.392331,
            "longitude": 2.158326,
            "rating": 0.0
        }, {
            "stops": [{
                "transport_type": {
                    "type": "METRO"
                },
                "lines": ["L4"],
                "station": 42
            }, {
                "transport_type": {
                    "type": "TRAM"
                },
                "lines": ["T5", "T6"],
                "station": 42
            }],
            "name": "Bes\u00f2s",
            "latitude": 41.419929,
            "longitude": 2.210257,
            "rating": 0.0
        }, {
            "stops": [{
                "transport_type": {
                    "type": "METRO"
                },
                "lines": ["L5"],
                "station": 43
            }, {
                "transport_type": {
                    "type": "TRAM"
                },
                "lines": ["T1", "T2"],
                "station": 43
            }],
            "name": "Cornell\u00e0 Centre",
            "latitude": 41.357319,
            "longitude": 2.070455,
            "rating": 0.0
        }, {
            "stops": [{
                "transport_type": {
                    "type": "METRO"
                },
                "lines": ["L5", "L9"],
                "station": 44
            }],
            "name": "Collblanc",
            "latitude": 41.375772,
            "longitude": 2.119222,
            "rating": 0.0
        }, {
            "stops": [{
                "transport_type": {
                    "type": "METRO"
                },
                "lines": ["L5"],
                "station": 45
            }],
            "name": "Enten\u00e7a",
            "latitude": 41.384495,
            "longitude": 2.145645,
            "rating": 0.0
        }, {
            "stops": [{
                "transport_type": {
                    "type": "METRO"
                },
                "lines": ["L5"],
                "station": 46
            }],
            "name": "Vilapicina",
            "latitude": 41.430493,
            "longitude": 2.167645,
            "rating": 0.0
        }, {
            "stops": [{
                "transport_type": {
                    "type": "METRO"
                },
                "lines": ["L9"],
                "station": 47
            }],
            "name": "Aeroport T2",
            "latitude": 41.303852,
            "longitude": 2.073141,
            "rating": 0.0
        }, {
            "stops": [{
                "transport_type": {
                    "type": "METRO"
                },
                "lines": ["L9"],
                "station": 48
            }],
            "name": "Bon Pastor",
            "latitude": 41.436231,
            "longitude": 2.20532,
            "rating": 0.0
        }, {
            "stops": [{
                "transport_type": {
                    "type": "FGC"
                },
                "lines": [],
                "station": 49
            }],
            "name": "MUNTANER",
            "latitude": 41.398631,
            "longitude": 2.142754,
            "rating": 0.0
        }, {
            "stops": [{
                "transport_type": {
                    "type": "FGC"
                },
                "lines": [],
                "station": 50
            }],
            "name": "LES TRES TORRES",
            "latitude": 41.397781,
            "longitude": 2.130828,
            "rating": 0.0
        }, {
            "stops": [{
                "transport_type": {
                    "type": "RENFE"
                },
                "lines": [],
                "station": 51
            }],
            "name": "MONTCADA I REIXACSTA. MARIA",
            "latitude": 41.481319,
            "longitude": 2.167379,
            "rating": 0.0
        }, {
            "stops": [{
                "transport_type": {
                    "type": "RENFE"
                },
                "lines": [],
                "station": 52
            }, {
                "transport_type": {
                    "type": "METRO"
                },
                "lines": ["L1"],
                "station": 52
            }],
            "name": "ARC DE TRIOMF",
            "latitude": 41.393385,
            "longitude": 2.181952,
            "rating": 0.0
        }, {
            "stops": [{
                "transport_type": {
                    "type": "RENFE"
                },
                "lines": [],
                "station": 53
            }],
            "name": "MOLINS DE REI",
            "latitude": 41.410017,
            "longitude": 2.021024,
            "rating": 0.0
        }, {
            "stops": [{
                "transport_type": {
                    "type": "RENFE"
                },
                "lines": [],
                "station": 54
            }],
            "name": "BADALONA",
            "latitude": 41.445856,
            "longitude": 2.249093,
            "rating": 0.0
        }, {
            "stops": [{
                "transport_type": {
                    "type": "RENFE"
                },
                "lines": [],
                "station": 55
            }, {
                "transport_type": {
                    "type": "METRO"
                },
                "lines": ["L1", "L2"],
                "station": 55
            }],
            "name": "CLOT",
            "latitude": 41.409832,
            "longitude": 2.187908,
            "rating": 0.0
        }, {
            "stops": [{
                "transport_type": {
                    "type": "METRO"
                },
                "lines": ["L1", "L2"],
                "station": 56
            }],
            "name": "Universitat",
            "latitude": 41.385843,
            "longitude": 2.16431,
            "rating": 0.0
        }, {
            "stops": [{
                "transport_type": {
                    "type": "METRO"
                },
                "lines": ["L2"],
                "station": 57
            }],
            "name": "Verneda",
            "latitude": 41.430032,
            "longitude": 2.209909,
            "rating": 0.0
        }, {
            "stops": [{
                "transport_type": {
                    "type": "METRO"
                },
                "lines": ["L1"],
                "station": 58
            }],
            "name": "Santa Eul\u00e0lia",
            "latitude": 41.368844,
            "longitude": 2.128644,
            "rating": 0.0
        }, {
            "stops": [{
                "transport_type": {
                    "type": "METRO"
                },
                "lines": ["L4", "L5"],
                "station": 59
            }],
            "name": "Verdaguer",
            "latitude": 41.400393,
            "longitude": 2.168086,
            "rating": 0.0
        }, {
            "stops": [{
                "transport_type": {
                    "type": "METRO"
                },
                "lines": ["L1"],
                "station": 60
            }],
            "name": "Zona Franca",
            "latitude": 41.343005,
            "longitude": 2.144991,
            "rating": 0.0
        }, {
            "stops": [{
                "transport_type": {
                    "type": "METRO"
                },
                "lines": ["L3"],
                "station": 61
            }, {
                "transport_type": {
                    "type": "TRAM"
                },
                "lines": ["T1", "T2", "T3"],
                "station": 61
            }],
            "name": "Maria Cristina",
            "latitude": 41.387844,
            "longitude": 2.125817,
            "rating": 0.0
        }, {
            "stops": [{
                "transport_type": {
                    "type": "METRO"
                },
                "lines": ["L3", "L4", "L1"],
                "station": 62
            }],
            "name": "Trinitat Nova",
            "latitude": 41.449528,
            "longitude": 2.184122,
            "rating": 0.0
        }, {
            "stops": [{
                "transport_type": {
                    "type": "TRAM"
                },
                "lines": ["T5", "T6"],
                "station": 63
            }],
            "name": "ALFONS EL MAGN\u00c0NIM",
            "latitude": 41.417238,
            "longitude": 2.213571,
            "rating": 0.0
        }, {
            "stops": [{
                "transport_type": {
                    "type": "TRAM"
                },
                "lines": ["T5", "T6"],
                "station": 64
            }],
            "name": "PARC DEL BES\u00d3S",
            "latitude": 41.41938,
            "longitude": 2.217564,
            "rating": 0.0
        }, {
            "stops": [{
                "transport_type": {
                    "type": "TRAM"
                },
                "lines": ["T5", "T6"],
                "station": 65
            }],
            "name": "CAN JAUMANDREU",
            "latitude": 41.408024,
            "longitude": 2.193551,
            "rating": 0.0
        }, {
            "stops": [{
                "transport_type": {
                    "type": "FGC"
                },
                "lines": [],
                "station": 66
            }],
            "name": "SANT GERVASI",
            "latitude": 41.401372,
            "longitude": 2.147016,
            "rating": 0.0
        }, {
            "stops": [{
                "transport_type": {
                    "type": "METRO"
                },
                "lines": ["L1"],
                "station": 67
            }],
            "name": "Av. Carrilet",
            "latitude": 41.358582,
            "longitude": 2.102659,
            "rating": 0.0
        }, {
            "stops": [{
                "transport_type": {
                    "type": "METRO"
                },
                "lines": ["L4"],
                "station": 68
            }],
            "name": "Guinard\u00f3 | Hospital de Sant Pau",
            "latitude": 41.41599,
            "longitude": 2.174015,
            "rating": 0.0
        }, {
            "stops": [{
                "transport_type": {
                    "type": "METRO"
                },
                "lines": ["L5"],
                "station": 69
            }],
            "name": "Can Vidalet",
            "latitude": 41.371307,
            "longitude": 2.099472,
            "rating": 0.0
        }, {
            "stops": [{
                "transport_type": {
                    "type": "METRO"
                },
                "lines": ["L4"],
                "station": 70
            }],
            "name": "Alfons X",
            "latitude": 41.412405,
            "longitude": 2.166408,
            "rating": 0.0
        }, {
            "stops": [{
                "transport_type": {
                    "type": "METRO"
                },
                "lines": ["L1"],
                "station": 71
            }],
            "name": "Ciutat Meridiana",
            "latitude": 41.460836,
            "longitude": 2.174675,
            "rating": 0.0
        }, {
            "stops": [{
                "transport_type": {
                    "type": "FGC"
                },
                "lines": [],
                "station": 72
            }],
            "name": "AVINGUDA DEL TIBIDABO",
            "latitude": 41.410227,
            "longitude": 2.137173,
            "rating": 0.0
        }, {
            "stops": [{
                "transport_type": {
                    "type": "FGC"
                },
                "lines": [],
                "station": 73
            }],
            "name": "PADUA",
            "latitude": 41.403596,
            "longitude": 2.142617,
            "rating": 0.0
        }, {
            "stops": [{
                "transport_type": {
                    "type": "METRO"
                },
                "lines": ["L3"],
                "station": 74
            }],
            "name": "Tarragona",
            "latitude": 41.378521,
            "longitude": 2.145362,
            "rating": 0.0
        }, {
            "stops": [{
                "transport_type": {
                    "type": "METRO"
                },
                "lines": ["L9", "L1"],
                "station": 75
            }],
            "name": "Torrassa",
            "latitude": 41.368251,
            "longitude": 2.115783,
            "rating": 0.0
        }, {
            "stops": [{
                "transport_type": {
                    "type": "FGC"
                },
                "lines": [],
                "station": 76
            }, {
                "transport_type": {
                    "type": "METRO"
                },
                "lines": ["L5", "L3"],
                "station": 76
            }],
            "name": "Diagonal",
            "latitude": 41.394463,
            "longitude": 2.158856,
            "rating": 0.0
        }, {
            "stops": [{
                "transport_type": {
                    "type": "METRO"
                },
                "lines": ["L5"],
                "station": 77
            }],
            "name": "Camp de l'Arpa",
            "latitude": 41.415088,
            "longitude": 2.181523,
            "rating": 0.0
        }, {
            "stops": [{
                "transport_type": {
                    "type": "METRO"
                },
                "lines": ["L5"],
                "station": 78
            }],
            "name": "Horta",
            "latitude": 41.429721,
            "longitude": 2.16,
            "rating": 0.0
        }, {
            "stops": [{
                "transport_type": {
                    "type": "METRO"
                },
                "lines": ["L5", "L3"],
                "station": 79
            }],
            "name": "Vall d'Hebron",
            "latitude": 41.425021,
            "longitude": 2.142382,
            "rating": 0.0
        }, {
            "stops": [{
                "transport_type": {
                    "type": "FGC"
                },
                "lines": [],
                "station": 80
            }],
            "name": "GR\u00c0CIA",
            "latitude": 41.399679,
            "longitude": 2.151636,
            "rating": 0.0
        }, {
            "stops": [{
                "transport_type": {
                    "type": "RENFE"
                },
                "lines": [],
                "station": 81
            }],
            "name": "CERDANYOLA DEL VALL\u00c8S",
            "latitude": 41.492347,
            "longitude": 2.147997,
            "rating": 0.0
        }, {
            "stops": [{
                "transport_type": {
                    "type": "FGC"
                },
                "lines": [],
                "station": 82
            }],
            "name": "ILDEFONS CERD\u00c0",
            "latitude": 41.361391,
            "longitude": 2.130463,
            "rating": 0.0
        }, {
            "stops": [{
                "transport_type": {
                    "type": "RENFE"
                },
                "lines": [],
                "station": 83
            }],
            "name": "DE FRAN\u00c7A",
            "latitude": 41.384232,
            "longitude": 2.185449,
            "rating": 0.0
        }, {
            "stops": [{
                "transport_type": {
                    "type": "RENFE"
                },
                "lines": [],
                "station": 84
            }],
            "name": "SANT ANDREU ARENAL",
            "latitude": 41.430862,
            "longitude": 2.183101,
            "rating": 0.0
        }, {
            "stops": [{
                "transport_type": {
                    "type": "TRAM"
                },
                "lines": ["T4"],
                "station": 85
            }],
            "name": "FLUVI\u00c0",
            "latitude": 41.40744,
            "longitude": 2.203312,
            "rating": 0.0
        }, {
            "stops": [{
                "transport_type": {
                    "type": "TRAM"
                },
                "lines": ["T1", "T2", "T3"],
                "station": 86
            }],
            "name": "PONT D'ESPLUGUES",
            "latitude": 41.376495,
            "longitude": 2.087563,
            "rating": 0.0
        }, {
            "stops": [{
                "transport_type": {
                    "type": "TRAM"
                },
                "lines": ["T1", "T2"],
                "station": 87
            }],
            "name": "LES AIG\u00dcES",
            "latitude": 41.356699,
            "longitude": 2.066109,
            "rating": 0.0
        }, {
            "stops": [{
                "transport_type": {
                    "type": "METRO"
                },
                "lines": ["L2"],
                "station": 88
            }],
            "name": "Tetuan",
            "latitude": 41.394915,
            "longitude": 2.175585,
            "rating": 0.0
        }, {
            "stops": [{
                "transport_type": {
                    "type": "METRO"
                },
                "lines": ["L2", "L1"],
                "station": 89
            }, {
                "transport_type": {
                    "type": "TRAM"
                },
                "lines": ["T5"],
                "station": 89
            }],
            "name": "Gorg",
            "latitude": 41.440265,
            "longitude": 2.233466,
            "rating": 0.0
        }, {
            "stops": [{
                "transport_type": {
                    "type": "METRO"
                },
                "lines": ["L1"],
                "station": 90
            }],
            "name": "Santa Coloma",
            "latitude": 41.451095,
            "longitude": 2.207994,
            "rating": 0.0
        }, {
            "stops": [{
                "transport_type": {
                    "type": "METRO"
                },
                "lines": ["L3"],
                "station": 91
            }],
            "name": "Drassanes",
            "latitude": 41.376567,
            "longitude": 2.17569,
            "rating": 0.0
        }, {
            "stops": [{
                "transport_type": {
                    "type": "METRO"
                },
                "lines": ["L3"],
                "station": 92
            }],
            "name": "Fontana",
            "latitude": 41.402037,
            "longitude": 2.153048,
            "rating": 0.0
        }, {
            "stops": [{
                "transport_type": {
                    "type": "METRO"
                },
                "lines": ["L1"],
                "station": 93
            }],
            "name": "La Salut",
            "latitude": 41.442845,
            "longitude": 2.224762,
            "rating": 0.0
        }, {
            "stops": [{
                "transport_type": {
                    "type": "METRO"
                },
                "lines": ["L1"],
                "station": 94
            }],
            "name": "Foc",
            "latitude": 41.35619,
            "longitude": 2.141831,
            "rating": 0.0
        }, {
            "stops": [{
                "transport_type": {
                    "type": "METRO"
                },
                "lines": ["L3", "L5"],
                "station": 95
            }, {
                "transport_type": {
                    "type": "RENFE"
                },
                "lines": [],
                "station": 95
            }],
            "name": "Sants Estaci\u00f3",
            "latitude": 41.381626,
            "longitude": 2.141018,
            "rating": 0.0
        }, {
            "stops": [{
                "transport_type": {
                    "type": "METRO"
                },
                "lines": ["L1"],
                "station": 96
            }, {
                "transport_type": {
                    "type": "RENFE"
                },
                "lines": [],
                "station": 96
            }],
            "name": "Bellvitge",
            "latitude": 41.351005,
            "longitude": 2.110944,
            "rating": 0.0
        }, {
            "stops": [{
                "transport_type": {
                    "type": "TRAM"
                },
                "lines": ["T4"],
                "station": 97
            }],
            "name": "CIUTADELLAVILA OL\u00cdMPICA",
            "latitude": 41.387575,
            "longitude": 2.192089,
            "rating": 0.0
        }, {
            "stops": [{
                "transport_type": {
                    "type": "TRAM"
                },
                "lines": ["T1", "T2"],
                "station": 98
            }],
            "name": "BON VIATGE",
            "latitude": 41.363968,
            "longitude": 2.058263,
            "rating": 0.0
        }, {
            "stops": [{
                "transport_type": {
                    "type": "TRAM"
                },
                "lines": ["T2"],
                "station": 99
            }],
            "name": "LA FONTSANTA",
            "latitude": 41.36756,
            "longitude": 2.062535,
            "rating": 0.0
        }, {
            "stops": [{
                "transport_type": {
                    "type": "TRAM"
                },
                "lines": ["T5"],
                "station": 100
            }],
            "name": "SANT JOAN BAPTISTA",
            "latitude": 41.427474,
            "longitude": 2.22531,
            "rating": 0.0
        }, {
            "stops": [{
                "transport_type": {
                    "type": "METRO"
                },
                "lines": ["L4"],
                "station": 101
            }],
            "name": "Ciutadella | Vila Ol\u00edmpica",
            "latitude": 41.386715,
            "longitude": 2.193017,
            "rating": 0.0
        }, {
            "stops": [{
                "transport_type": {
                    "type": "METRO"
                },
                "lines": ["L2"],
                "station": 102
            }],
            "name": "Artigues | Sant Adri\u00e0",
            "latitude": 41.433876,
            "longitude": 2.217798,
            "rating": 0.0
        }, {
            "stops": [{
                "transport_type": {
                    "type": "METRO"
                },
                "lines": ["L1"],
                "station": 103
            }],
            "name": "Ecoparc",
            "latitude": 41.330188,
            "longitude": 2.137098,
            "rating": 0.0
        }, {
            "stops": [{
                "transport_type": {
                    "type": "METRO"
                },
                "lines": ["L1", "L5", "L9"],
                "station": 104
            }, {
                "transport_type": {
                    "type": "RENFE"
                },
                "lines": [],
                "station": 104
            }],
            "name": "La Sagrera",
            "latitude": 41.422397,
            "longitude": 2.187001,
            "rating": 0.0
        }, {
            "stops": [{
                "transport_type": {
                    "type": "METRO"
                },
                "lines": ["L4"],
                "station": 105
            }],
            "name": "Llucmajor",
            "latitude": 41.437013,
            "longitude": 2.173369,
            "rating": 0.0
        }, {
            "stops": [{
                "transport_type": {
                    "type": "METRO"
                },
                "lines": ["L3"],
                "station": 106
            }],
            "name": "Lesseps",
            "latitude": 41.405766,
            "longitude": 2.150433,
            "rating": 0.0
        }, {
            "stops": [{
                "transport_type": {
                    "type": "FGC"
                },
                "lines": [],
                "station": 107
            }],
            "name": "CAN ROS",
            "latitude": 41.398991,
            "longitude": 2.00528,
            "rating": 0.0
        }, {
            "stops": [{
                "transport_type": {
                    "type": "FGC"
                },
                "lines": [],
                "station": 108
            }],
            "name": "COL\u00d2NIA G\u00dcELL",
            "latitude": 41.363609,
            "longitude": 2.031499,
            "rating": 0.0
        }, {
            "stops": [{
                "transport_type": {
                    "type": "METRO"
                },
                "lines": ["L5"],
                "station": 109
            }],
            "name": "Hospital Cl\u00ednic",
            "latitude": 41.388636,
            "longitude": 2.151107,
            "rating": 0.0
        }, {
            "stops": [{
                "transport_type": {
                    "type": "METRO"
                },
                "lines": ["L5"],
                "station": 110
            }],
            "name": "El Carmel",
            "latitude": 41.424478,
            "longitude": 2.155125,
            "rating": 0.0
        }, {
            "stops": [{
                "transport_type": {
                    "type": "METRO"
                },
                "lines": ["L9"],
                "station": 111
            }],
            "name": "Mas Blau",
            "latitude": 41.311254,
            "longitude": 2.073499,
            "rating": 0.0
        }, {
            "stops": [{
                "transport_type": {
                    "type": "METRO"
                },
                "lines": ["L9"],
                "station": 112
            }],
            "name": "Les Moreres",
            "latitude": 41.329148,
            "longitude": 2.1031,
            "rating": 0.0
        }, {
            "stops": [{
                "transport_type": {
                    "type": "METRO"
                },
                "lines": ["L9"],
                "station": 113
            }],
            "name": "Can Zam",
            "latitude": 41.456694,
            "longitude": 2.198594,
            "rating": 0.0
        }, {
            "stops": [{
                "transport_type": {
                    "type": "METRO"
                },
                "lines": ["L9"],
                "station": 114
            }],
            "name": "Esgl\u00e9sia Major",
            "latitude": 41.454825,
            "longitude": 2.212202,
            "rating": 0.0
        }, {
            "stops": [{
                "transport_type": {
                    "type": "METRO"
                },
                "lines": ["L5"],
                "station": 115
            }],
            "name": "Sant Pau | Dos de Maig",
            "latitude": 41.410781,
            "longitude": 2.176042,
            "rating": 0.0
        }, {
            "stops": [{
                "transport_type": {
                    "type": "FGC"
                },
                "lines": [],
                "station": 116
            }],
            "name": "Funicular Vallvidrera",
            "latitude": 41.414261,
            "longitude": 2.105977,
            "rating": 0.0
        }, {
            "stops": [{
                "transport_type": {
                    "type": "FGC"
                },
                "lines": [],
                "station": 117
            }],
            "name": "EUROPA / FIRA",
            "latitude": 41.357005,
            "longitude": 2.125369,
            "rating": 0.0
        }, {
            "stops": [{
                "transport_type": {
                    "type": "FGC"
                },
                "lines": [],
                "station": 118
            }],
            "name": "SANTA COLOMA DE CERVELL\u00d3",
            "latitude": 41.369224,
            "longitude": 2.025086,
            "rating": 0.0
        }, {
            "stops": [{
                "transport_type": {
                    "type": "FGC"
                },
                "lines": [],
                "station": 119
            }],
            "name": "PEU FUNICULAR",
            "latitude": 41.409282,
            "longitude": 2.110914,
            "rating": 0.0
        }, {
            "stops": [{
                "transport_type": {
                    "type": "RENFE"
                },
                "lines": [],
                "station": 120
            }],
            "name": "MONTCADA I REIXACMANRESA",
            "latitude": 41.484284,
            "longitude": 2.185163,
            "rating": 0.0
        }, {
            "stops": [{
                "transport_type": {
                    "type": "RENFE"
                },
                "lines": [],
                "station": 121
            }],
            "name": "ST. JOAN DESP\u00cd",
            "latitude": 41.368661,
            "longitude": 2.060314,
            "rating": 0.0
        }, {
            "stops": [{
                "transport_type": {
                    "type": "TRAM"
                },
                "lines": ["T1", "T2", "T3"],
                "station": 122
            }],
            "name": "L'ILLA",
            "latitude": 41.390505,
            "longitude": 2.136412,
            "rating": 0.0
        }, {
            "stops": [{
                "transport_type": {
                    "type": "TRAM"
                },
                "lines": ["T4"],
                "station": 123
            }],
            "name": "WELLINGTON",
            "latitude": 41.390398,
            "longitude": 2.188338,
            "rating": 0.0
        }, {
            "stops": [{
                "transport_type": {
                    "type": "TRAM"
                },
                "lines": ["T5", "T6"],
                "station": 124
            }],
            "name": "SANT MART\u00cd DE PROVEN\u00c7ALS",
            "latitude": 41.416358,
            "longitude": 2.204513,
            "rating": 0.0
        }, {
            "stops": [{
                "transport_type": {
                    "type": "TRAM"
                },
                "lines": ["T4"],
                "station": 125
            }],
            "name": "DIAGONAL MAR",
            "latitude": 41.41033,
            "longitude": 2.214952,
            "rating": 0.0
        }, {
            "stops": [{
                "transport_type": {
                    "type": "METRO"
                },
                "lines": ["L1"],
                "station": 126
            }],
            "name": "Florida",
            "latitude": 41.368344,
            "longitude": 2.110054,
            "rating": 0.0
        }, {
            "stops": [{
                "transport_type": {
                    "type": "METRO"
                },
                "lines": ["L4"],
                "station": 127
            }],
            "name": "Girona",
            "latitude": 41.394948,
            "longitude": 2.170851,
            "rating": 0.0
        }, {
            "stops": [{
                "transport_type": {
                    "type": "METRO"
                },
                "lines": ["L4"],
                "station": 128
            }],
            "name": "Poblenou",
            "latitude": 41.403744,
            "longitude": 2.203397,
            "rating": 0.0
        }, {
            "stops": [{
                "transport_type": {
                    "type": "METRO"
                },
                "lines": ["L1"],
                "station": 129
            }],
            "name": "Hostafrancs",
            "latitude": 41.375282,
            "longitude": 2.143318,
            "rating": 0.0
        }, {
            "stops": [{
                "transport_type": {
                    "type": "METRO"
                },
                "lines": ["L3"],
                "station": 130
            }],
            "name": "Poble Sec",
            "latitude": 41.375024,
            "longitude": 2.160272,
            "rating": 0.0
        }, {
            "stops": [{
                "transport_type": {
                    "type": "TRAM"
                },
                "lines": ["T5"],
                "station": 131
            }],
            "name": "LA CATALANA",
            "latitude": 41.422595,
            "longitude": 2.221856,
            "rating": 0.0
        }, {
            "stops": [{
                "transport_type": {
                    "type": "TRAM"
                },
                "lines": ["T4"],
                "station": 132
            }],
            "name": "AUDITORITEATRE NACIONAL",
            "latitude": 41.397311,
            "longitude": 2.186968,
            "rating": 0.0
        }, {
            "stops": [{
                "transport_type": {
                    "type": "TRAM"
                },
                "lines": ["T4"],
                "station": 133
            }, {
                "transport_type": {
                    "type": "METRO"
                },
                "lines": ["L1"],
                "station": 133
            }],
            "name": "MARINA",
            "latitude": 41.39407,
            "longitude": 2.186918,
            "rating": 0.0
        }, {
            "stops": [{
                "transport_type": {
                    "type": "FGC"
                },
                "lines": [],
                "station": 134
            }],
            "name": "PLA\u00c7A MOLINA<center>",
            "latitude": 41.401403,
            "longitude": 2.147573,
            "rating": 0.0
        }, {
            "stops": [{
                "transport_type": {
                    "type": "TRAM"
                },
                "lines": ["T1", "T2", "T3"],
                "station": 135
            }],
            "name": "PIUS XII",
            "latitude": 41.386718,
            "longitude": 2.121492,
            "rating": 0.0
        }, {
            "stops": [{
                "transport_type": {
                    "type": "METRO"
                },
                "lines": ["L3"],
                "station": 136
            }],
            "name": "Penitents",
            "latitude": 41.418307,
            "longitude": 2.140998,
            "rating": 0.0
        }, {
            "stops": [{
                "transport_type": {
                    "type": "METRO"
                },
                "lines": ["L3"],
                "station": 137
            }],
            "name": "Roquetes",
            "latitude": 41.447698,
            "longitude": 2.176124,
            "rating": 0.0
        }, {
            "stops": [{
                "transport_type": {
                    "type": "METRO"
                },
                "lines": ["L5"],
                "station": 138
            }],
            "name": "Sant Ildefons",
            "latitude": 41.363409,
            "longitude": 2.08442,
            "rating": 0.0
        }, {
            "stops": [{
                "transport_type": {
                    "type": "METRO"
                },
                "lines": ["L4"],
                "station": 139
            }, {
                "transport_type": {
                    "type": "TRAM"
                },
                "lines": ["T4"],
                "station": 139
            }],
            "name": "Selva de Mar",
            "latitude": 41.40803,
            "longitude": 2.209148,
            "rating": 0.0
        }, {
            "stops": [{
                "transport_type": {
                    "type": "RENFE"
                },
                "lines": [],
                "station": 140
            }],
            "name": "MONTCADA BIFURCACI\u00d3",
            "latitude": 41.470873,
            "longitude": 2.179942,
            "rating": 0.0
        }, {
            "stops": [{
                "transport_type": {
                    "type": "METRO"
                },
                "lines": ["L1"],
                "station": 141
            }],
            "name": "ZAL | Riu Vell",
            "latitude": 41.323735,
            "longitude": 2.133122,
            "rating": 0.0
        }, {
            "stops": [{
                "transport_type": {
                    "type": "METRO"
                },
                "lines": ["L5", "L4"],
                "station": 142
            }],
            "name": "Maragall",
            "latitude": 41.425073,
            "longitude": 2.176511,
            "rating": 0.0
        }, {
            "stops": [{
                "transport_type": {
                    "type": "METRO"
                },
                "lines": ["L5"],
                "station": 143
            }],
            "name": "El Coll | La Teixonera",
            "latitude": 41.422025,
            "longitude": 2.148374,
            "rating": 0.0
        }, {
            "stops": [{
                "transport_type": {
                    "type": "METRO"
                },
                "lines": ["L9"],
                "station": 144
            }],
            "name": "Onze de Setembre",
            "latitude": 41.429587,
            "longitude": 2.19359,
            "rating": 0.0
        }, {
            "stops": [{
                "transport_type": {
                    "type": "FGC"
                },
                "lines": [],
                "station": 145
            }],
            "name": "SANT BOI",
            "latitude": 41.348145,
            "longitude": 2.043259,
            "rating": 0.0
        }, {
            "stops": [{
                "transport_type": {
                    "type": "RENFE"
                },
                "lines": [],
                "station": 146
            }],
            "name": "SANT ANDREU COMTAL",
            "latitude": 41.435959,
            "longitude": 2.193312,
            "rating": 0.0
        }, {
            "stops": [{
                "transport_type": {
                    "type": "RENFE"
                },
                "lines": [],
                "station": 147
            }],
            "name": "MONTCADA I REIXAC",
            "latitude": 41.484611,
            "longitude": 2.188413,
            "rating": 0.0
        }, {
            "stops": [{
                "transport_type": {
                    "type": "RENFE"
                },
                "lines": [],
                "station": 148
            }],
            "name": "ST. FELIU DE LLOBREGAT",
            "latitude": 41.383079,
            "longitude": 2.048073,
            "rating": 0.0
        }, {
            "stops": [{
                "transport_type": {
                    "type": "RENFE"
                },
                "lines": [],
                "station": 149
            }],
            "name": "L'HOSPITALET DE LLOBREGAT",
            "latitude": 41.364252,
            "longitude": 2.100702,
            "rating": 0.0
        }, {
            "stops": [{
                "transport_type": {
                    "type": "TRAM"
                },
                "lines": ["T1", "T2", "T3"],
                "station": 150
            }, {
                "transport_type": {
                    "type": "METRO"
                },
                "lines": ["L3"],
                "station": 150
            }],
            "name": "PALAU REIAL",
            "latitude": 41.385874,
            "longitude": 2.118294,
            "rating": 0.0
        }, {
            "stops": [{
                "transport_type": {
                    "type": "TRAM"
                },
                "lines": ["T5", "T6"],
                "station": 151
            }],
            "name": "LA FARINERA",
            "latitude": 41.404209,
            "longitude": 2.188532,
            "rating": 0.0
        }, {
            "stops": [{
                "transport_type": {
                    "type": "TRAM"
                },
                "lines": ["T5"],
                "station": 152
            }, {
                "transport_type": {
                    "type": "METRO"
                },
                "lines": ["L2"],
                "station": 152
            }],
            "name": "SANT ROC",
            "latitude": 41.434948,
            "longitude": 2.227764,
            "rating": 0.0
        }, {
            "stops": [{
                "transport_type": {
                    "type": "METRO"
                },
                "lines": ["L1"],
                "station": 153
            }],
            "name": "Casa de l'Aigua",
            "latitude": 41.451306,
            "longitude": 2.184865,
            "rating": 0.0
        }, {
            "stops": [{
                "transport_type": {
                    "type": "METRO"
                },
                "lines": ["L5"],
                "station": 154
            }],
            "name": "Ernest Lluch",
            "latitude": 41.375926,
            "longitude": 2.112054,
            "rating": 0.0
        }, {
            "stops": [{
                "transport_type": {
                    "type": "METRO"
                },
                "lines": ["L3", "L9"],
                "station": 155
            }, {
                "transport_type": {
                    "type": "TRAM"
                },
                "lines": ["T1", "T2", "T3"],
                "station": 155
            }],
            "name": "Zona Universit\u00e0ria",
            "latitude": 41.384143,
            "longitude": 2.111205,
            "rating": 0.0
        }, {
            "stops": [{
                "transport_type": {
                    "type": "TRAM"
                },
                "lines": ["T1", "T2", "T3"],
                "station": 156
            }],
            "name": "NUM\u00c0NCIA",
            "latitude": 41.389343,
            "longitude": 2.131844,
            "rating": 0.0
        }, {
            "stops": [{
                "transport_type": {
                    "type": "TRAM"
                },
                "lines": ["T6"],
                "station": 157
            }],
            "name": "LA MINA",
            "latitude": 41.418341,
            "longitude": 2.221206,
            "rating": 0.0
        }, {
            "stops": [{
                "transport_type": {
                    "type": "METRO"
                },
                "lines": ["L3"],
                "station": 158
            }],
            "name": "Pla\u00e7a del Centre",
            "latitude": 41.38195,
            "longitude": 2.13591,
            "rating": 0.0
        }, {
            "stops": [{
                "transport_type": {
                    "type": "METRO"
                },
                "lines": ["L5"],
                "station": 159
            }],
            "name": "Gavarra",
            "latitude": 41.358022,
            "longitude": 2.079296,
            "rating": 0.0
        }, {
            "stops": [{
                "transport_type": {
                    "type": "METRO"
                },
                "lines": ["L5"],
                "station": 160
            }],
            "name": "Pubilla Cases",
            "latitude": 41.373866,
            "longitude": 2.107236,
            "rating": 0.0
        }, {
            "stops": [{
                "transport_type": {
                    "type": "METRO"
                },
                "lines": ["L2"],
                "station": 161
            }],
            "name": "Badalona Pompeu Fabra",
            "latitude": 41.449082,
            "longitude": 2.244122,
            "rating": 0.0
        }, {
            "stops": [{
                "transport_type": {
                    "type": "FGC"
                },
                "lines": [],
                "station": 162
            }],
            "name": "REINA ELISENDA",
            "latitude": 41.398423,
            "longitude": 2.118699,
            "rating": 0.0
        }, {
            "stops": [{
                "transport_type": {
                    "type": "METRO"
                },
                "lines": ["L2", "L4"],
                "station": 163
            }],
            "name": "La Pau",
            "latitude": 41.424061,
            "longitude": 2.205634,
            "rating": 0.0
        }, {
            "stops": [{
                "transport_type": {
                    "type": "METRO"
                },
                "lines": ["L9"],
                "station": 164
            }],
            "name": "El Prat Estaci\u00f3",
            "latitude": 41.332022,
            "longitude": 2.089954,
            "rating": 0.0
        }, {
            "stops": [{
                "transport_type": {
                    "type": "METRO"
                },
                "lines": ["L9"],
                "station": 165
            }],
            "name": "Parc Log\u00edstic",
            "latitude": 41.341693,
            "longitude": 2.127428,
            "rating": 0.0
        }, {
            "stops": [{
                "transport_type": {
                    "type": "METRO"
                },
                "lines": ["L9"],
                "station": 166
            }],
            "name": "Europa | Fira",
            "latitude": 41.357589,
            "longitude": 2.125951,
            "rating": 0.0
        }, {
            "stops": [{
                "transport_type": {
                    "type": "METRO"
                },
                "lines": ["L9"],
                "station": 167
            }],
            "name": "Mercabarna",
            "latitude": 41.333514,
            "longitude": 2.111281,
            "rating": 0.0
        }, {
            "stops": [{
                "transport_type": {
                    "type": "METRO"
                },
                "lines": ["L5"],
                "station": 168
            }],
            "name": "Congr\u00e9s",
            "latitude": 41.423468,
            "longitude": 2.181212,
            "rating": 0.0
        }, {
            "stops": [{
                "transport_type": {
                    "type": "METRO"
                },
                "lines": ["L1"],
                "station": 169
            }],
            "name": "Can Cui\u00e0s",
            "latitude": 41.462441,
            "longitude": 2.173084,
            "rating": 0.0
        }, {
            "stops": [{
                "transport_type": {
                    "type": "FGC"
                },
                "lines": [],
                "station": 170
            }],
            "name": "MAG\u00d2RIA-LA CAMPANA",
            "latitude": 41.368228,
            "longitude": 2.139358,
            "rating": 0.0
        }, {
            "stops": [{
                "transport_type": {
                    "type": "FGC"
                },
                "lines": [],
                "station": 171
            }, {
                "transport_type": {
                    "type": "METRO"
                },
                "lines": ["L1", "L3"],
                "station": 171
            }],
            "name": "ESPANYA",
            "latitude": 41.374547,
            "longitude": 2.148628,
            "rating": 0.0
        }, {
            "stops": [{
                "transport_type": {
                    "type": "TRAM"
                },
                "lines": ["T1", "T2"],
                "station": 172
            }],
            "name": "IGNASI IGL\u00c9SIAS",
            "latitude": 41.360796,
            "longitude": 2.072171,
            "rating": 0.0
        }, {
            "stops": [{
                "transport_type": {
                    "type": "TRAM"
                },
                "lines": ["T3"],
                "station": 173
            }],
            "name": "TORREBLANCA",
            "latitude": 41.379784,
            "longitude": 2.0607,
            "rating": 0.0
        }, {
            "stops": [{
                "transport_type": {
                    "type": "METRO"
                },
                "lines": ["L3"],
                "station": 174
            }],
            "name": "Vallcarca",
            "latitude": 41.412003,
            "longitude": 2.144363,
            "rating": 0.0
        }, {
            "stops": [{
                "transport_type": {
                    "type": "METRO"
                },
                "lines": ["L1"],
                "station": 175
            }],
            "name": "Torre Bar\u00f3 | Vallbona",
            "latitude": 41.459224,
            "longitude": 2.179909,
            "rating": 0.0
        }, {
            "stops": [{
                "transport_type": {
                    "type": "TRAM"
                },
                "lines": ["T4"],
                "station": 176
            }],
            "name": "PERE IV",
            "latitude": 41.406205,
            "longitude": 2.198381,
            "rating": 0.0
        }, {
            "stops": [{
                "transport_type": {
                    "type": "METRO"
                },
                "lines": ["L1"],
                "station": 177
            }],
            "name": "Can Serra",
            "latitude": 41.367722,
            "longitude": 2.102785,
            "rating": 0.0
        }, {
            "stops": [{
                "transport_type": {
                    "type": "TRAM"
                },
                "lines": ["T1", "T2", "T3"],
                "station": 178
            }],
            "name": "SANT RAMON",
            "latitude": 41.376647,
            "longitude": 2.112031,
            "rating": 0.0
        }, {
            "stops": [{
                "transport_type": {
                    "type": "METRO"
                },
                "lines": ["L1"],
                "station": 179
            }],
            "name": "Trinitat Vella",
            "latitude": 41.448984,
            "longitude": 2.193862,
            "rating": 0.0
        }, {
            "stops": [{
                "transport_type": {
                    "type": "METRO"
                },
                "lines": ["L9"],
                "station": 180
            }],
            "name": "C\u00e8ntric",
            "latitude": 41.322279,
            "longitude": 2.09349,
            "rating": 0.0
        }, {
            "stops": [{
                "transport_type": {
                    "type": "METRO"
                },
                "lines": ["L1"],
                "station": 181
            }],
            "name": "Navas",
            "latitude": 41.416215,
            "longitude": 2.187083,
            "rating": 0.0
        }, {
            "stops": [{
                "transport_type": {
                    "type": "METRO"
                },
                "lines": ["L2"],
                "station": 182
            }],
            "name": "Encants",
            "latitude": 41.407264,
            "longitude": 2.182726,
            "rating": 0.0
        }, {
            "stops": [{
                "transport_type": {
                    "type": "METRO"
                },
                "lines": ["L4"],
                "station": 183
            }],
            "name": "Bes\u00f2s Mar",
            "latitude": 41.415127,
            "longitude": 2.216108,
            "rating": 0.0
        }, {
            "stops": [{
                "transport_type": {
                    "type": "FGC"
                },
                "lines": [],
                "station": 184
            }],
            "name": "ALMEDA",
            "latitude": 41.353011,
            "longitude": 2.086746,
            "rating": 0.0
        }, {
            "stops": [{
                "transport_type": {
                    "type": "FGC"
                },
                "lines": [],
                "station": 185
            }],
            "name": "GORNAL",
            "latitude": 41.35536,
            "longitude": 2.117531,
            "rating": 0.0
        }, {
            "stops": [{
                "transport_type": {
                    "type": "METRO"
                },
                "lines": ["L9"],
                "station": 186
            }],
            "name": "Can Tries | Gornal",
            "latitude": 41.360923,
            "longitude": 2.11802,
            "rating": 0.0
        }, {
            "stops": [{
                "transport_type": {
                    "type": "METRO"
                },
                "lines": ["L9"],
                "station": 187
            }],
            "name": "Can Peixauet",
            "latitude": 41.444014,
            "longitude": 2.210052,
            "rating": 0.0
        }, {
            "stops": [{
                "transport_type": {
                    "type": "METRO"
                },
                "lines": ["L5"],
                "station": 188
            }],
            "name": "Badal",
            "latitude": 41.375609,
            "longitude": 2.127429,
            "rating": 0.0
        }, {
            "stops": [{
                "transport_type": {
                    "type": "FGC"
                },
                "lines": [],
                "station": 189
            }],
            "name": "L'HOSPITALET-AV. CARRILET",
            "latitude": 41.357794,
            "longitude": 2.103422,
            "rating": 0.0
        }, {
            "stops": [{
                "transport_type": {
                    "type": "FGC"
                },
                "lines": [],
                "station": 190
            }],
            "name": "SANT JOSEP",
            "latitude": 41.361271,
            "longitude": 2.11168,
            "rating": 0.0
        }, {
            "stops": [{
                "transport_type": {
                    "type": "FGC"
                },
                "lines": [],
                "station": 191
            }],
            "name": "LES PLANES",
            "latitude": 41.427474,
            "longitude": 2.091563,
            "rating": 0.0
        }, {
            "stops": [{
                "transport_type": {
                    "type": "FGC"
                },
                "lines": [],
                "station": 192
            }],
            "name": "BAIXADOR DE VALLVIDRERA",
            "latitude": 41.419668,
            "longitude": 2.09734,
            "rating": 0.0
        }, {
            "stops": [{
                "transport_type": {
                    "type": "FGC"
                },
                "lines": [],
                "station": 193
            }],
            "name": "SANT VICEN\u00c7 DELS HORTS",
            "latitude": 41.388104,
            "longitude": 2.012394,
            "rating": 0.0
        }, {
            "stops": [{
                "transport_type": {
                    "type": "RENFE"
                },
                "lines": [],
                "station": 194
            }],
            "name": "AEROPORT",
            "latitude": 41.304419,
            "longitude": 2.073913,
            "rating": 0.0
        }, {
            "stops": [{
                "transport_type": {
                    "type": "RENFE"
                },
                "lines": [],
                "station": 195
            }],
            "name": "TORRE BAR\u00d3",
            "latitude": 41.46161,
            "longitude": 2.180357,
            "rating": 0.0
        }, {
            "stops": [{
                "transport_type": {
                    "type": "TRAM"
                },
                "lines": ["T2"],
                "station": 196
            }],
            "name": "SANT MART\u00cd DE L'ERM (Baixador)",
            "latitude": 41.371003,
            "longitude": 2.07622,
            "rating": 0.0
        }, {
            "stops": [{
                "transport_type": {
                    "type": "METRO"
                },
                "lines": ["L1"],
                "station": 197
            }],
            "name": "Hospital de Bellvitge",
            "latitude": 41.344706,
            "longitude": 2.107269,
            "rating": 0.0
        }, {
            "stops": [{
                "transport_type": {
                    "type": "METRO"
                },
                "lines": ["L1"],
                "station": 198
            }],
            "name": "Fabra i Puig",
            "latitude": 41.429661,
            "longitude": 2.183687,
            "rating": 0.0
        }, {
            "stops": [{
                "transport_type": {
                    "type": "METRO"
                },
                "lines": ["L2", "L5"],
                "station": 199
            }],
            "name": "Sagrada Fam\u00edlia",
            "latitude": 41.404013,
            "longitude": 2.175132,
            "rating": 0.0
        }, {
            "stops": [{
                "transport_type": {
                    "type": "METRO"
                },
                "lines": ["L3"],
                "station": 200
            }],
            "name": "Les Corts",
            "latitude": 41.384148,
            "longitude": 2.130897,
            "rating": 0.0
        }, {
            "stops": [{
                "transport_type": {
                    "type": "METRO"
                },
                "lines": ["L1"],
                "station": 201
            }],
            "name": "Torras i Bages",
            "latitude": 41.443253,
            "longitude": 2.190697,
            "rating": 0.0
        }, {
            "stops": [{
                "transport_type": {
                    "type": "METRO"
                },
                "lines": ["FM"],
                "station": 202
            }],
            "name": "Parc de Montju\u00efc",
            "latitude": 41.368985,
            "longitude": 2.163296,
            "rating": 0.0
        }, {
            "stops": [{
                "transport_type": {
                    "type": "METRO"
                },
                "lines": ["L1"],
                "station": 203
            }],
            "name": "Sant Andreu",
            "latitude": 41.436628,
            "longitude": 2.191213,
            "rating": 0.0
        }, {
            "stops": [{
                "transport_type": {
                    "type": "METRO"
                },
                "lines": ["L4", "L1"],
                "station": 204
            }],
            "name": "Urquinaona",
            "latitude": 41.387989,
            "longitude": 2.173471,
            "rating": 0.0
        }, {
            "stops": [{
                "transport_type": {
                    "type": "METRO"
                },
                "lines": ["L3"],
                "station": 205
            }],
            "name": "Valldaura",
            "latitude": 41.438024,
            "longitude": 2.156904,
            "rating": 0.0
        }, {
            "stops": [{
                "transport_type": {
                    "type": "METRO"
                },
                "lines": ["L1"],
                "station": 206
            }],
            "name": "Rocafort",
            "latitude": 41.37926,
            "longitude": 2.154588,
            "rating": 0.0
        }, {
            "stops": [{
                "transport_type": {
                    "type": "METRO"
                },
                "lines": ["L1"],
                "station": 207
            }],
            "name": "Ciutat de la Just\u00edcia",
            "latitude": 41.363166,
            "longitude": 2.132342,
            "rating": 0.0
        }, {
            "stops": [{
                "transport_type": {
                    "type": "FGC"
                },
                "lines": [],
                "station": 208
            }],
            "name": "CORNELL\u00c0-RIERA",
            "latitude": 41.351845,
            "longitude": 2.068427,
            "rating": 0.0
        }, {
            "stops": [{
                "transport_type": {
                    "type": "FGC"
                },
                "lines": [],
                "station": 209
            }],
            "name": "MOL\u00cd NOU-CIUTAT COOPERATIVA",
            "latitude": 41.357711,
            "longitude": 2.034689,
            "rating": 0.0
        }, {
            "stops": [{
                "transport_type": {
                    "type": "METRO"
                },
                "lines": ["L9"],
                "station": 210
            }],
            "name": "Fira",
            "latitude": 41.352017,
            "longitude": 2.130479,
            "rating": 0.0
        }, {
            "stops": [{
                "transport_type": {
                    "type": "TRAM"
                },
                "lines": ["T4"],
                "station": 211
            }],
            "name": "CAN LLIMA",
            "latitude": 41.415244,
            "longitude": 2.222906,
            "rating": 0.0
        }, {
            "stops": [{
                "transport_type": {
                    "type": "TRAM"
                },
                "lines": ["T4"],
                "station": 212
            }],
            "name": "CA L'ARANY\u00d3",
            "latitude": 41.40443,
            "longitude": 2.19139,
            "rating": 0.0
        }, {
            "stops": [{
                "transport_type": {
                    "type": "RENFE"
                },
                "lines": [],
                "station": 213
            }],
            "name": "CORNELL\u00c0",
            "latitude": 41.357914,
            "longitude": 2.06998,
            "rating": 0.0
        }, {
            "stops": [{
                "transport_type": {
                    "type": "RENFE"
                },
                "lines": [],
                "station": 214
            }],
            "name": "SANT ADRI\u00c0 DEL BES\u00d2S",
            "latitude": 41.424408,
            "longitude": 2.230523,
            "rating": 0.0
        }, {
            "stops": [{
                "transport_type": {
                    "type": "TRAM"
                },
                "lines": ["T1", "T2", "T3"],
                "station": 215
            }],
            "name": "CAN CLOTA",
            "latitude": 41.376929,
            "longitude": 2.09287,
            "rating": 0.0
        }, {
            "stops": [{
                "transport_type": {
                    "type": "TRAM"
                },
                "lines": ["T1", "T2", "T3"],
                "station": 216
            }],
            "name": "MONTESA",
            "latitude": 41.369445,
            "longitude": 2.080799,
            "rating": 0.0
        }, {
            "stops": [{
                "transport_type": {
                    "type": "TRAM"
                },
                "lines": ["T1", "T2", "T3"],
                "station": 217
            }],
            "name": "FRANCESC MACI\u00c0",
            "latitude": 41.392183,
            "longitude": 2.142997,
            "rating": 0.0
        }, {
            "stops": [{
                "transport_type": {
                    "type": "METRO"
                },
                "lines": ["L9"],
                "station": 218
            }],
            "name": "Singuerl\u00edn",
            "latitude": 41.459442,
            "longitude": 2.205454,
            "rating": 0.0
        }, {
            "stops": [{
                "transport_type": {
                    "type": "TRAM"
                },
                "lines": ["T3"],
                "station": 219
            }],
            "name": "WALDEN",
            "latitude": 41.379733,
            "longitude": 2.067057,
            "rating": 0.0
        }, {
            "stops": [{
                "transport_type": {
                    "type": "METRO"
                },
                "lines": ["L1"],
                "station": 220
            }],
            "name": "Rambla Just Oliveras",
            "latitude": 41.364118,
            "longitude": 2.099776,
            "rating": 0.0
        }, {
            "stops": [{
                "transport_type": {
                    "type": "METRO"
                },
                "lines": ["L4"],
                "station": 221
            }],
            "name": "El Maresme | F\u00f2rum",
            "latitude": 41.411808,
            "longitude": 2.216718,
            "rating": 0.0
        }, {
            "stops": [{
                "transport_type": {
                    "type": "METRO"
                },
                "lines": ["L4"],
                "station": 222
            }],
            "name": "Joanic",
            "latitude": 41.406455,
            "longitude": 2.163251,
            "rating": 0.0
        }, {
            "stops": [{
                "transport_type": {
                    "type": "METRO"
                },
                "lines": ["L1"],
                "station": 223
            }],
            "name": "Proven\u00e7ana",
            "latitude": 41.361383,
            "longitude": 2.124127,
            "rating": 0.0
        }, {
            "stops": [{
                "transport_type": {
                    "type": "METRO"
                },
                "lines": ["L3"],
                "station": 224
            }],
            "name": "Canyelles",
            "latitude": 41.441782,
            "longitude": 2.166414,
            "rating": 0.0
        }, {
            "stops": [{
                "transport_type": {
                    "type": "TRAM"
                },
                "lines": ["T2"],
                "station": 225
            }],
            "name": "CENTRE MIQUEL MART\u00cd I POL",
            "latitude": 41.36843,
            "longitude": 2.069961,
            "rating": 0.0
        }, {
            "stops": [{
                "transport_type": {
                    "type": "METRO"
                },
                "lines": ["L5"],
                "station": 226
            }],
            "name": "Can Boixeres",
            "latitude": 41.366599,
            "longitude": 2.091533,
            "rating": 0.0
        }, {
            "stops": [{
                "transport_type": {
                    "type": "METRO"
                },
                "lines": ["L2"],
                "station": 227
            }],
            "name": "Pep Ventura",
            "latitude": 41.443933,
            "longitude": 2.237984,
            "rating": 0.0
        }, {
            "stops": [{
                "transport_type": {
                    "type": "METRO"
                },
                "lines": ["L1"],
                "station": 228
            }],
            "name": "Mercat Nou",
            "latitude": 41.373031,
            "longitude": 2.133563,
            "rating": 0.0
        }, {
            "stops": [{
                "transport_type": {
                    "type": "METRO"
                },
                "lines": ["L4"],
                "station": 229
            }],
            "name": "Llacuna",
            "latitude": 41.399453,
            "longitude": 2.197738,
            "rating": 0.0
        }, {
            "stops": [{
                "transport_type": {
                    "type": "METRO"
                },
                "lines": ["L9"],
                "station": 230
            }],
            "name": "Aeroport T1",
            "latitude": 41.288324,
            "longitude": 2.07118,
            "rating": 0.0
        }, {
            "stops": [{
                "transport_type": {
                    "type": "METRO"
                },
                "lines": ["L9"],
                "station": 231
            }],
            "name": "Parc Nou",
            "latitude": 41.316657,
            "longitude": 2.087956,
            "rating": 0.0
        }, {
            "stops": [{
                "transport_type": {
                    "type": "METRO"
                },
                "lines": ["L9"],
                "station": 232
            }],
            "name": "Santa Rosa",
            "latitude": 41.446878,
            "longitude": 2.215834,
            "rating": 0.0
        }, {
            "stops": [{
                "transport_type": {
                    "type": "METRO"
                },
                "lines": ["L1"],
                "station": 233
            }],
            "name": "Port Comercial | La Factoria",
            "latitude": 41.336012,
            "longitude": 2.140684,
            "rating": 0.0
        }, {
            "stops": [{
                "transport_type": {
                    "type": "METRO"
                },
                "lines": ["L5"],
                "station": 234
            }],
            "name": "Virrei Amat",
            "latitude": 41.429731,
            "longitude": 2.174939,
            "rating": 0.0
        }
    ]
}